<Task pev_start_window="0" pev_start_wait_time="0" fai_finish="0" finish_min_height_ref="AGL" finish_min_height="0" start_max_height_ref="AGL" start_max_height="0" start_max_speed="0" start_score_exit="1" start_requires_arm="0" aat_min_time="10800" type="RT">
	<Point type="Start">
		<Waypoint altitude="477" comment="" id="709" name="002SPZELEC">
			<Location latitude="49.3161" longitude="14.6442"/>
		</Waypoint>
		<ObservationZone length="15000" type="Line"/>
	</Point>
	<Point type="Turn">
		<Waypoint altitude="585" comment="" id="488" name="165HAUGSHLAG">
			<Location latitude="48.9989" longitude="15.0589"/>
		</Waypoint>
		<ObservationZone radius="500" type="Cylinder"/>
	</Point>
	<Point type="Turn">
		<Waypoint altitude="350" comment="" id="87" name="538SUCHDOL">
			<Location latitude="48.9025" longitude="14.8822"/>
		</Waypoint>
		<ObservationZone radius="500" type="Cylinder"/>
	</Point>
	<Point type="Turn">
		<Waypoint altitude="500" comment="" id="358" name="477ROZMITAL">
			<Location latitude="49.6025" longitude="13.882"/>
		</Waypoint>
		<ObservationZone radius="500" type="Cylinder"/>
	</Point>
	<Point type="Turn">
		<Waypoint altitude="420" comment="" id="315" name="344MILIN">
			<Location latitude="49.6378" longitude="14.05"/>
		</Waypoint>
		<ObservationZone radius="500" type="Cylinder"/>
	</Point>
	<Point type="Finish">
		<Waypoint altitude="428" comment="" id="710" name="001SPTABOR">
			<Location latitude="49.3942" longitude="14.7028"/>
		</Waypoint>
		<ObservationZone radius="5000" type="Cylinder"/>
	</Point>
</Task>
