<Task pev_start_window="0" pev_start_wait_time="0" fai_finish="0" finish_min_height_ref="AGL" finish_min_height="0" start_max_height_ref="AGL" start_max_height="0" start_max_speed="0" start_score_exit="1" start_requires_arm="1" aat_min_time="10800" type="AAT">
	<Point type="Start">
		<Waypoint altitude="477" comment="" id="709" name="002SPZELEC">
			<Location latitude="49.3161" longitude="14.6442"/>
		</Waypoint>
		<ObservationZone length="15000" type="Line"/>
	</Point>
	<Point type="Area">
		<Waypoint altitude="355" comment="" id="182" name="652ZVIKOV">
			<Location latitude="49.4178" longitude="14.19"/>
		</Waypoint>
		<ObservationZone radius="30000" type="Cylinder"/>
	</Point>
	<Point type="Area">
		<Waypoint altitude="520" comment="" id="636" name="198HUMPOLEC">
			<Location latitude="49.5264" longitude="15.3492"/>
		</Waypoint>
		<ObservationZone radius="20000" type="Cylinder"/>
	</Point>
	<Point type="Area">
		<Waypoint altitude="425" comment="" id="542" name="112DROSENDORF">
			<Location latitude="48.8692" longitude="15.6206"/>
		</Waypoint>
		<ObservationZone radius="30000" type="Cylinder"/>
	</Point>
	<Point type="Finish">
		<Waypoint altitude="428" comment="" id="710" name="001SPTABOR">
			<Location latitude="49.3942" longitude="14.7028"/>
		</Waypoint>
		<ObservationZone radius="5000" type="Cylinder"/>
	</Point>
</Task>
