<Task pev_start_window="0" pev_start_wait_time="0" fai_finish="0" finish_min_height_ref="AGL" finish_min_height="0" start_max_height_ref="AGL" start_max_height="0" start_max_speed="0" start_score_exit="1" start_requires_arm="1" aat_min_time="8100" type="AAT">
	<Point type="Start">
		<Waypoint altitude="477" comment="" id="709" name="002SPZELEC">
			<Location latitude="49.3161" longitude="14.6442"/>
		</Waypoint>
		<ObservationZone length="15000" type="Line"/>
	</Point>
	<Point type="Area">
		<Waypoint altitude="510" comment="" id="343" name="676SEDLICE">
			<Location latitude="49.3759" longitude="13.9415"/>
		</Waypoint>
		<ObservationZone radius="40000" type="Cylinder"/>
	</Point>
	<Point type="Area">
		<Waypoint altitude="576" comment="" id="4" name="710WETZELSBERG">
			<Location latitude="48.9162" longitude="15.4268"/>
		</Waypoint>
		<ObservationZone radius="30000" type="Cylinder"/>
	</Point>
	<Point type="Area">
		<Waypoint altitude="650" comment="" id="226" name="608VYSKYTNA">
			<Location latitude="49.4278" longitude="15.3642"/>
		</Waypoint>
		<ObservationZone radius="25000" type="Cylinder"/>
	</Point>
	<Point type="Finish">
		<Waypoint altitude="428" comment="" id="710" name="001SPTABOR">
			<Location latitude="49.3942" longitude="14.7028"/>
		</Waypoint>
		<ObservationZone radius="5000" type="Cylinder"/>
	</Point>
</Task>
