<Task pev_start_window="0" pev_start_wait_time="0" fai_finish="0" finish_min_height_ref="AGL" finish_min_height="0" start_max_height_ref="AGL" start_max_height="0" start_max_speed="0" start_score_exit="1" start_requires_arm="0" aat_min_time="10800" type="RT">
	<Point type="Start">
		<Waypoint altitude="477" comment="" id="709" name="002SPZELEC">
			<Location latitude="49.3161" longitude="14.6442"/>
		</Waypoint>
		<ObservationZone length="15000" type="Line"/>
	</Point>
	<Point type="Turn">
		<Waypoint altitude="651" comment="" id="7" name="706RASY">
			<Location latitude="49.0786" longitude="15.0661"/>
		</Waypoint>
		<ObservationZone radius="500" type="Cylinder"/>
	</Point>
	<Point type="Turn">
		<Waypoint altitude="586" comment="" id="648" name="186HORNICEREKEV">
			<Location latitude="49.3111" longitude="15.3242"/>
		</Waypoint>
		<ObservationZone radius="500" type="Cylinder"/>
	</Point>
	<Point type="Turn">
		<Waypoint altitude="400" comment="" id="316" name="343MILEVSKO">
			<Location latitude="49.4417" longitude="14.3775"/>
		</Waypoint>
		<ObservationZone radius="500" type="Cylinder"/>
	</Point>
	<Point type="Turn">
		<Waypoint altitude="406" comment="" id="192" name="642ZELIV">
			<Location latitude="49.5225" longitude="15.2186"/>
		</Waypoint>
		<ObservationZone radius="500" type="Cylinder"/>
	</Point>
	<Point type="Turn">
		<Waypoint altitude="660" comment="" id="20" name="691KAMEN">
			<Location latitude="49.3763" longitude="14.9943"/>
		</Waypoint>
		<ObservationZone radius="500" type="Cylinder"/>
	</Point>
	<Point type="Finish">
		<Waypoint altitude="428" comment="" id="710" name="001SPTABOR">
			<Location latitude="49.3942" longitude="14.7028"/>
		</Waypoint>
		<ObservationZone radius="5000" type="Cylinder"/>
	</Point>
</Task>
